{
"type": "FeatureCollection",
"name": "CLUBSTOURS",
"crs": { "type": "name", "properties": { "name": "urn:ogc:def:crs:OGC:1.3:CRS84" } },
"features": [
{ "type": "Feature", "properties": { "Name": "Bike your city", "tessellate": -1, "extrude": 0, "visibility": -1, "Website": "https:\/\/www.bikeyourcity.be\/atelier\/", "Attribute": "Sell bikes and fix bikes too, any brands" }, "geometry": { "type": "Point", "coordinates": [ 4.3684052, 50.8115537, 0.0 ] } },
{ "type": "Feature", "properties": { "Name": "Brubike", "tessellate": -1, "extrude": 0, "visibility": -1, "Website": "https:\/\/www.brubike.be", "Attribute": "No attributes for OSM" }, "geometry": { "type": "Point", "coordinates": [ 4.3452473, 50.8539241, 0.0 ] } },
{ "type": "Feature", "properties": { "Name": "Brussels Big brackets (Départ)", "tessellate": -1, "extrude": 0, "visibility": -1, "Website": "https:\/\/www.facebook.com\/groups\/BrusselsBigBrackets\/", "Attribute": "Just a running club" }, "geometry": { "type": "Point", "coordinates": [ 4.3781487, 50.806618, 0.0 ] } },
{ "type": "Feature", "properties": { "Name": "Cactus Brussel à vélo", "tessellate": -1, "extrude": 0, "visibility": -1, "Website": "https:\/\/cactus.brussels\/guided-bike-tours", "Attribute": "Guided bike tour" }, "geometry": { "type": "Point", "coordinates": [ 4.3562576, 50.8460096, 0.0 ] } },
{ "type": "Feature", "properties": { "Name": "Gemeenschapscentrum Wabo vzw", "tessellate": -1, "extrude": 0, "visibility": -1, "Attribute": "Not sure what that is" }, "geometry": { "type": "Point", "coordinates": [ 4.41123570000002, 50.7956985, 0.0 ] } },
{ "type": "Feature", "properties": { "Name": "HORS CATEGORIE", "tessellate": -1, "extrude": 0, "visibility": -1, "Website": "http:\/\/horscategorie.brussels\/", "Attribute": "Already done" }, "geometry": { "type": "Point", "coordinates": [ 4.3846725, 50.8226007, 0.0 ] } },
{ "type": "Feature", "properties": { "Name": "Kring ASBL", "tessellate": -1, "extrude": 0, "visibility": -1, "Website": "https:\/\/www.google.com\/search?gs_ssp=eJzj4tVP1zc0TEmpKEozryw2YLRSNagwMU82Tja2sDCyTDQwTDExtTKoSDawMDaxSE5NtEhJSU5ONvHiyi7KzEtXSM4pTQIAe68Tug&q=kring+club&oq=kring&aqs=chrome.1.69i59j46l2j69i60l5.1731j0j7&sourceid=chrome&ie=UTF-8", "Attribute": "Seem to sell bike stuff, and other stuff, also a club, ans host workshops, needs to be contacted" }, "geometry": { "type": "Point", "coordinates": [ 4.34544, 50.849103, 0.0 ] } },
{ "type": "Feature", "properties": { "Name": "Le Refuge des cyclistes", "tessellate": -1, "extrude": 0, "visibility": -1, "Website": "https:\/\/www.facebook.com\/Le-refuge-des-cyclistes-622008464638760\/", "Attribute": "Cycling group" }, "geometry": { "type": "Point", "coordinates": [ 4.3437202, 50.8519389, 0.0 ] } },
{ "type": "Feature", "properties": { "Name": "PedalBXL Tours", "tessellate": -1, "extrude": 0, "visibility": -1, "Website": "https:\/\/pedalbxl.com\/", "Attribute": "Guided roadbike tour" }, "geometry": { "type": "Point", "coordinates": [ 4.3043775, 50.8708779, 0.0 ] } },
{ "type": "Feature", "properties": { "Name": "Pro Velo", "tessellate": -1, "extrude": 0, "visibility": -1, "Website": "https:\/\/www.provelo.org\/fr\/page\/bruxelles-boutique", "Attribute": "Buy, rent, fix until SEPTEMBER" }, "geometry": { "type": "Point", "coordinates": [ 4.36753980000003, 50.8379999, 0.0 ] } }
]
}
