{
"type": "FeatureCollection",
"name": "CLUBSTOURS",
"crs": { "type": "name", "properties": { "name": "urn:ogc:def:crs:OGC:1.3:CRS84" } },
"features": [
{ "type": "Feature", "properties": { "Name": "Bike your city", "tessellate": -1, "extrude": 0, "visibility": -1 }, "geometry": { "type": "Point", "coordinates": [ 4.3684052, 50.8115537, 0.0 ] } },
{ "type": "Feature", "properties": { "Name": "Brubike", "description": "https:\/\/www.brubike.be", "tessellate": -1, "extrude": 0, "visibility": -1 }, "geometry": { "type": "Point", "coordinates": [ 4.3452473, 50.8539241, 0.0 ] } },
{ "type": "Feature", "properties": { "Name": "Brussels Big brackets (Départ)", "description": "http:\/\/brusselsbigbrackets.be", "tessellate": -1, "extrude": 0, "visibility": -1 }, "geometry": { "type": "Point", "coordinates": [ 4.3781487, 50.806618, 0.0 ] } },
{ "type": "Feature", "properties": { "Name": "Cactus Brussel à vélo", "tessellate": -1, "extrude": 0, "visibility": -1 }, "geometry": { "type": "Point", "coordinates": [ 4.3562576, 50.8460096, 0.0 ] } },
{ "type": "Feature", "properties": { "Name": "Gemeenschapscentrum Wabo vzw", "tessellate": -1, "extrude": 0, "visibility": -1 }, "geometry": { "type": "Point", "coordinates": [ 4.41123570000002, 50.7956985, 0.0 ] } },
{ "type": "Feature", "properties": { "Name": "HORS CATEGORIE", "description": "http:\/\/horscategorie.brussels\/", "tessellate": -1, "extrude": 0, "visibility": -1 }, "geometry": { "type": "Point", "coordinates": [ 4.3846725, 50.8226007, 0.0 ] } },
{ "type": "Feature", "properties": { "Name": "Kring ASBL", "tessellate": -1, "extrude": 0, "visibility": -1 }, "geometry": { "type": "Point", "coordinates": [ 4.34544, 50.849103, 0.0 ] } },
{ "type": "Feature", "properties": { "Name": "Le Refuge des cyclistes", "description": "https:\/\/www.facebook.com\/Le-refuge-des-cyclistes-622008464638760\/", "tessellate": -1, "extrude": 0, "visibility": -1 }, "geometry": { "type": "Point", "coordinates": [ 4.3437202, 50.8519389, 0.0 ] } },
{ "type": "Feature", "properties": { "Name": "PedalBXL Tours", "tessellate": -1, "extrude": 0, "visibility": -1 }, "geometry": { "type": "Point", "coordinates": [ 4.3043775, 50.8708779, 0.0 ] } },
{ "type": "Feature", "properties": { "Name": "Pro Velo", "tessellate": -1, "extrude": 0, "visibility": -1 }, "geometry": { "type": "Point", "coordinates": [ 4.36753980000003, 50.8379999, 0.0 ] } }
]
}
